[{"namn": "Stora torget", "kategori": "Centrum", "lat": 58.41068961135765, "lon": 15.621606181841017, "type": "plats", "org": ""}, {"namn": "Lilla torget", "kategori": "Centrum", "lat": 58.41029969776604, "lon": 15.62691207913008, "type": "plats", "org": ""}, {"namn": "Bilbörsen Arena", "kategori": "Idrottsanläggning", "lat": 58.41792159954982, "lon": 15.649193888035493, "type": "plats", "org": ""}, {"namn": "Flygvapenmuseum", "kategori": "Evenemang", "lat": 58.41033441562631, "lon": 15.52412652708664, "type": "plats", "org": ""}, {"namn": "Folkets Park", "kategori": "Evenemang", "lat": 58.40828381342344, "lon": 15.589461689780716, "type": "plats", "org": ""}, {"namn": "Konsert & Kongress", "kategori": "Evenemang", "lat": 58.413273258414826, "lon": 15.6149190070211, "type": "plats", "org": ""}, {"namn": "Saab Arena", "kategori": "Idrottsanläggning", "lat": 58.41692617017111, "lon": 15.63584668029959, "type": "plats", "org": ""}, {"namn": "Sporthallen", "kategori": "Idrottsanläggning", "lat": 58.40735370345933, "lon": 15.63059771406909, "type": "plats", "org": ""}, {"namn": "Vasahallen", "kategori": "Idrottsanläggning", "lat": 58.41616816548115, "lon": 15.61330838061331, "type": "plats", "org": ""}, {"namn": "Fenomenmagasinet", "kategori": "Fritid", "lat": 58.399914411876, "lon": 15.585292050570718, "type": "plats", "org": ""}, {"namn": "Grenadjärvallen", "kategori": "Fritid", "lat": 58.39769408851784, "lon": 15.610167846320314, "type": "plats", "org": ""}, {"namn": "Isovalen", "kategori": "Fritid", "lat": 58.39492305617178, "lon": 15.583110366851445, "type": "plats", "org": ""}, {"namn": "Tinnerbäcksbadet", "kategori": "Fritid", "lat": 58.40414795910214, "lon": 15.631527219754052, "type": "plats", "org": ""}, {"namn": "Trädgårdsföreningen", "kategori": "Fritid", "lat": 58.40780395616728, "lon": 15.620909241196724, "type": "plats", "org": ""}, {"namn": "UCS Arena", "kategori": "Fritid", "lat": 58.36845692647245, "lon": 15.69775168763055, "type": "plats", "org": ""}, {"namn": "Wahlbeckshallen", "kategori": "Fritid", "lat": 58.40908906018975, "lon": 15.553798724723768, "type": "plats", "org": ""}, {"namn": "Ebbepark", "kategori": "Förvaltning", "lat": 58.40443822923685, "lon": 15.60520993011906, "type": "plats", "org": ""}, {"namn": "Länsstyrelsen", "kategori": "Förvaltning", "lat": 58.410541310740456, "lon": 15.611650346971697, "type": "plats", "org": ""}, {"namn": "Regionhuset", "kategori": "Förvaltning", "lat": 58.40600128994407, "lon": 15.62645596629563, "type": "plats", "org": ""}, {"namn": "Stadshuset", "kategori": "Förvaltning", "lat": 58.410418578839234, "lon": 15.61769243511867, "type": "plats", "org": ""}, {"namn": "I-huset", "kategori": "Handel", "lat": 58.43268347916082, "lon": 15.586916998727908, "type": "plats", "org": ""}, {"namn": "Linköping City Airport (LCA)", "kategori": "Infrastruktur", "lat": 58.40746022897425, "lon": 15.65758016809413, "type": "plats", "org": ""}, {"namn": "Resecentrum", "kategori": "Infrastruktur", "lat": 58.41607982562851, "lon": 15.62574898557702, "type": "plats", "org": ""}, {"namn": "Polisen", "kategori": "Institution", "lat": 58.39672156033178, "lon": 15.61889865513393, "type": "plats", "org": ""}, {"namn": "Räddningsstation Kallerstad", "kategori": "Institution", "lat": 58.420777359345735, "lon": 15.65350870563459, "type": "plats", "org": ""}, {"namn": "Räddningsstation Lambohov", "kategori": "Institution", "lat": 58.39035672652562, "lon": 15.582158841942762, "type": "plats", "org": ""}, {"namn": "Universitet (Campus Valla)", "kategori": "Institution", "lat": 58.397228162227634, "lon": 15.578423753703431, "type": "plats", "org": ""}, {"namn": "Universitetssjukhuset (US)", "kategori": "Institution", "lat": 58.40026850738285, "lon": 15.62004599048944, "type": "plats", "org": ""}, {"namn": "Bergs slussar", "kategori": "Kultur", "lat": 58.4858850008362, "lon": 15.53029470967852, "type": "plats", "org": ""}, {"namn": "Brokinds slott", "kategori": "Kultur", "lat": 58.211149530251625, "lon": 15.66259904592016, "type": "plats", "org": ""}, {"namn": "Domkyrkan", "kategori": "Kultur", "lat": 58.41105755773546, "lon": 15.616713734446687, "type": "plats", "org": ""}, {"namn": "Ekenäs slott", "kategori": "Kultur", "lat": 58.3823090631714, "lon": 15.94579388187852, "type": "plats", "org": ""}, {"namn": "Gamla Linköping", "kategori": "Kultur", "lat": 58.40684137168597, "lon": 15.589247996220154, "type": "plats", "org": ""}, {"namn": "Hovetorps slussar", "kategori": "Kultur", "lat": 58.302335635973925, "lon": 15.723821992904742, "type": "plats", "org": ""}, {"namn": "Linköpings slott", "kategori": "Kultur", "lat": 58.41028868887295, "lon": 15.615891383218266, "type": "plats", "org": ""}, {"namn": "Ljungs slott", "kategori": "Kultur", "lat": 58.52852874036827, "lon": 15.443744346262095, "type": "plats", "org": ""}, {"namn": "Nya Slottet Bjärka-Säby", "kategori": "Kultur", "lat": 58.27062743649281, "lon": 15.738651328451509, "type": "plats", "org": ""}, {"namn": "Sankt Lars kyrka", "kategori": "Kultur", "lat": 58.41143833715505, "lon": 15.624749375787644, "type": "plats", "org": ""}, {"namn": "Stadsbiblioteket", "kategori": "Kultur", "lat": 58.411666942113655, "lon": 15.612813440525226, "type": "plats", "org": ""}, {"namn": "Stora Teatern", "kategori": "Kultur", "lat": 58.41389567286664, "lon": 15.619132117989189, "type": "plats", "org": ""}, {"namn": "Sturefors slott", "kategori": "Kultur", "lat": 58.32423774181002, "lon": 15.767342528076457, "type": "plats", "org": ""}, {"namn": "Tannefors slussar", "kategori": "Kultur", "lat": 58.400320592149285, "lon": 15.648462996635343, "type": "plats", "org": ""}, {"namn": "Östergötlands museum", "kategori": "Kultur", "lat": 58.414104288265655, "lon": 15.616005262720408, "type": "plats", "org": ""}, {"namn": "Vattentornet (Ramshäll)", "kategori": "Landmärke", "lat": 58.3993395302168, "lon": 15.634917211941213, "type": "plats", "org": ""}, {"namn": "Mjärdevi Center", "kategori": "Näringsliv", "lat": 58.39413528108002, "lon": 15.559685964103322, "type": "plats", "org": ""}, {"namn": "Tornet", "kategori": "Näringsliv", "lat": 58.42238265009915, "lon": 15.615387524103443, "type": "plats", "org": ""}, {"namn": "Berga centrum", "kategori": "Stadsdelscentrum", "lat": 58.392424620501664, "lon": 15.64337784122662, "type": "plats", "org": ""}, {"namn": "Djurgårdens centrum", "kategori": "Stadsdelscentrum", "lat": 58.38687811346573, "lon": 15.588497387614815, "type": "plats", "org": ""}, {"namn": "Ekholmens centrum", "kategori": "Stadsdelscentrum", "lat": 58.38081087241142, "lon": 15.681361157854017, "type": "plats", "org": ""}, {"namn": "Johannelunds centrum", "kategori": "Stadsdelscentrum", "lat": 58.39557425643241, "lon": 15.662498178595706, "type": "plats", "org": ""}, {"namn": "Lambohovs centrum", "kategori": "Stadsdelscentrum", "lat": 58.38838023535717, "lon": 15.56515065505014, "type": "plats", "org": ""}, {"namn": "Ryds centrum", "kategori": "Stadsdelscentrum", "lat": 58.40879010407353, "lon": 15.562219385076196, "type": "plats", "org": ""}, {"namn": "Skäggetorps centrum", "kategori": "Stadsdelscentrum", "lat": 58.42659044491589, "lon": 15.581392304345664, "type": "plats", "org": ""}, {"namn": "Vidingsjö Motionscentrum", "kategori": "Fritid", "lat": 58.37238108430817, "lon": 15.64349299081447, "type": "plats", "org": ""}, {"namn": "Mörtlösa ", "kategori": "Handel", "lat": 58.42815355321218, "lon": 15.666814007987634, "type": "plats", "org": ""}, {"namn": "Brokindsledens Köpcentrum", "kategori": "Handel", "lat": 58.39385494198387, "lon": 15.67289835985644, "type": "plats", "org": ""}, {"namn": "Kobergets utkiksplats", "kategori": "Landmärke", "lat": 58.399458562565215, "lon": 15.643528054541637, "type": "plats", "org": ""}, {"namn": "Gamla Vattentornet (Kanberget)", "kategori": "Landmärke", "lat": 58.407540614498856, "lon": 15.611735719848038, "type": "plats", "org": ""}, {"namn": "Anders Ljungstedts Gymnasium", "kategori": "Gymnasium", "lat": 58.414348629253865, "lon": 15.641567445255603, "type": "skola", "org": "Kommunal"}, {"namn": "Berzeliusskolan", "kategori": "Gymnasium", "lat": 58.41632682615052, "lon": 15.61080916411086, "type": "skola", "org": "Kommunal"}, {"namn": "Folkungaskolan", "kategori": "Gymnasium", "lat": 58.41030217723716, "lon": 15.605952732013275, "type": "skola", "org": "Kommunal"}, {"namn": "Jensen gymnasium", "kategori": "Gymnasium", "lat": 58.41242961373931, "lon": 15.6241070947277, "type": "skola", "org": "Fristående"}, {"namn": "Katedralskolan", "kategori": "Gymnasium", "lat": 58.41582605098108, "lon": 15.615996931699277, "type": "skola", "org": "Kommunal"}, {"namn": "Klara Teoretiska Gymnasium", "kategori": "Gymnasium", "lat": 58.41343658592426, "lon": 15.629656429120452, "type": "skola", "org": "Fristående"}, {"namn": "LBS Kreativa Gymnasium", "kategori": "Gymnasium", "lat": 58.41241857880398, "lon": 15.624911525415982, "type": "skola", "org": "Fristående"}, {"namn": "Linköping Fria Läroverk", "kategori": "Gymnasium", "lat": 58.39430218582808, "lon": 15.565739090496328, "type": "skola", "org": "Fristående"}, {"namn": "Linköpings idrottsgymnasium", "kategori": "Gymnasium", "lat": 58.40636191566802, "lon": 15.62570799562764, "type": "skola", "org": "Kommunal"}, {"namn": "Linnégymnasiet", "kategori": "Gymnasium", "lat": 58.40635323750032, "lon": 15.625161356492644, "type": "skola", "org": "Kommunal"}, {"namn": "MTU Gymnasium", "kategori": "Gymnasium", "lat": 58.41168689407981, "lon": 15.629734084940283, "type": "skola", "org": "Fristående"}, {"namn": "Praktiska Gymnasiet", "kategori": "Gymnasium", "lat": 58.43046267061581, "lon": 15.594307309174694, "type": "skola", "org": "Fristående"}, {"namn": "Realgymnasiet", "kategori": "Gymnasium", "lat": 58.42039975568415, "lon": 15.6125539497483, "type": "skola", "org": "Fristående"}, {"namn": "Vreta utbildningscentrum", "kategori": "Gymnasium", "lat": 58.489387345236814, "lon": 15.485533293677818, "type": "skola", "org": "Fristående"}, {"namn": "Yrkesgymnasiet", "kategori": "Gymnasium", "lat": 58.40809452301647, "lon": 15.630969625415876, "type": "skola", "org": "Fristående"}, {"namn": "Arenaskolan", "kategori": "Grundskola", "lat": 58.41736276878847, "lon": 15.650053589341589, "type": "skola", "org": "Kommunal"}, {"namn": "Askeby skola", "kategori": "Grundskola", "lat": 58.40829392177488, "lon": 15.856963728109712, "type": "skola", "org": "Kommunal"}, {"namn": "Bankekinds skola", "kategori": "Grundskola", "lat": 58.37571047386661, "lon": 15.82410375484832, "type": "skola", "org": "Kommunal"}, {"namn": "Björkö Friskola", "kategori": "Grundskola", "lat": 58.51051936983079, "lon": 15.525866463769791, "type": "skola", "org": "Fristående"}, {"namn": "Björnkärrskolan", "kategori": "Grundskola", "lat": 58.41566309900589, "lon": 15.562740037202486, "type": "skola", "org": "Kommunal"}, {"namn": "Blästadsskolan", "kategori": "Grundskola", "lat": 58.37638407139924, "lon": 15.67946776896697, "type": "skola", "org": "Kommunal"}, {"namn": "Brokinds skola", "kategori": "Grundskola", "lat": 58.20992319678315, "lon": 15.685131318794312, "type": "skola", "org": "Kommunal"}, {"namn": "Brunnbyskolan", "kategori": "Grundskola", "lat": 58.49645949574425, "lon": 15.507159087202076, "type": "skola", "org": "Kommunal"}, {"namn": "Bäckskolan", "kategori": "Grundskola", "lat": 58.38763289392551, "lon": 15.635807470910766, "type": "skola", "org": "Kommunal"}, {"namn": "Dar al Uloum", "kategori": "Grundskola", "lat": 58.42852270144934, "lon": 15.581191953978673, "type": "skola", "org": "Fristående"}, {"namn": "Ekholmsskolan", "kategori": "Grundskola", "lat": 58.37997523504926, "lon": 15.67424151767761, "type": "skola", "org": "Kommunal"}, {"namn": "Ekkälleskolan", "kategori": "Grundskola", "lat": 58.39482957730341, "lon": 15.622173771895046, "type": "skola", "org": "Kommunal"}, {"namn": "Ekängsskolan", "kategori": "Grundskola", "lat": 58.46958198317067, "lon": 15.642653744105075, "type": "skola", "org": "Kommunal"}, {"namn": "Bärstadskolan", "kategori": "Grundskola", "lat": 58.47358371556913, "lon": 15.642106176211955, "type": "skola", "org": "Kommunal"}, {"namn": "Elsa Brändströms grundskola", "kategori": "Grundskola", "lat": 58.41399959057544, "lon": 15.621753494650532, "type": "skola", "org": "Kommunal"}, {"namn": "Fridtunaskolan", "kategori": "Grundskola", "lat": 58.4048195141574, "lon": 15.60708067039533, "type": "skola", "org": "Kommunal"}, {"namn": "Frösunda Pandionskolan", "kategori": "Grundskola", "lat": 58.3840935605733, "lon": 15.661646576684465, "type": "skola", "org": "Fristående"}, {"namn": "Hagbyskolan", "kategori": "Grundskola", "lat": 58.38913181674922, "lon": 15.669817737054691, "type": "skola", "org": "Kommunal"}, {"namn": "Harvestadsskolan", "kategori": "Grundskola", "lat": 58.36758012857026, "lon": 15.69688149378272, "type": "skola", "org": "Kommunal"}, {"namn": "Bogestadsskolan", "kategori": "Grundskola", "lat": 58.36382063271632, "lon": 15.69959370568065, "type": "skola", "org": "Kommunal"}, {"namn": "Himnaskolan", "kategori": "Grundskola", "lat": 58.4288900273592, "lon": 15.782567296941334, "type": "skola", "org": "Kommunal"}, {"namn": "Hjulsbroskolan", "kategori": "Grundskola", "lat": 58.37677554301613, "lon": 15.714396007462335, "type": "skola", "org": "Kommunal"}, {"namn": "Internationella Engelska skolan", "kategori": "Grundskola", "lat": 58.41214852317303, "lon": 15.608689995808136, "type": "skola", "org": "Fristående"}, {"namn": "Jensen grundskolan", "kategori": "Grundskola", "lat": 58.40742180961117, "lon": 15.629412202136468, "type": "skola", "org": "Fristående"}, {"namn": "Kungsbergsskolan", "kategori": "Grundskola", "lat": 58.40877132797707, "lon": 15.642829525339137, "type": "skola", "org": "Kommunal"}, {"namn": "Kvinnebyskolan", "kategori": "Grundskola", "lat": 58.381728134792766, "lon": 15.69465960505791, "type": "skola", "org": "Kommunal"}, {"namn": "Kärna skola", "kategori": "Grundskola", "lat": 58.41775587297612, "lon": 15.515024966232875, "type": "skola", "org": "Kommunal"}, {"namn": "Lillgårdsskolan", "kategori": "Grundskola", "lat": 58.38504649292268, "lon": 15.651291457650045, "type": "skola", "org": "Fristående"}, {"namn": "Linghemsskolan", "kategori": "Grundskola", "lat": 58.43360742975399, "lon": 15.785518846837196, "type": "skola", "org": "Kommunal"}, {"namn": "Ljungsbro skola", "kategori": "Grundskola", "lat": 58.50654562857522, "lon": 15.50673446887068, "type": "skola", "org": "Kommunal"}, {"namn": "Montessori Mondial Linköping", "kategori": "Grundskola", "lat": 58.38826244971995, "lon": 15.674825819066326, "type": "skola", "org": "Fristående"}, {"namn": "Norrbergaskolan", "kategori": "Grundskola", "lat": 58.34235741192645, "lon": 15.725499295524292, "type": "skola", "org": "Kommunal"}, {"namn": "Nya Munken", "kategori": "Grundskola", "lat": 58.396921954435705, "lon": 15.661906266171089, "type": "skola", "org": "Fristående"}, {"namn": "Nya Rydsskolan", "kategori": "Grundskola", "lat": 58.41025695565157, "lon": 15.565293500178132, "type": "skola", "org": "Kommunal"}, {"namn": "Nygårdsskolan", "kategori": "Grundskola", "lat": 58.42542748322652, "lon": 15.584120926221374, "type": "skola", "org": "Kommunal"}, {"namn": "Nykils skola", "kategori": "Grundskola", "lat": 58.286716169183, "lon": 15.449172153714064, "type": "skola", "org": "Kommunal"}, {"namn": "Rosendalsskolan", "kategori": "Grundskola", "lat": 58.431797382096704, "lon": 15.575323280662682, "type": "skola", "org": "Kommunal"}, {"namn": "Skeda skola", "kategori": "Grundskola", "lat": 58.33426584266799, "lon": 15.56331761915627, "type": "skola", "org": "Kommunal"}, {"namn": "Slaka skola", "kategori": "Grundskola", "lat": 58.37012146273481, "lon": 15.55701917304268, "type": "skola", "org": "Kommunal"}, {"namn": "Slestadsskolan", "kategori": "Grundskola", "lat": 58.38583468221178, "lon": 15.570615002850891, "type": "skola", "org": "Kommunal"}, {"namn": "Småskolan & Eraskolan", "kategori": "Grundskola", "lat": 58.50906380473006, "lon": 15.499969681239325, "type": "skola", "org": "Fristående"}, {"namn": "Sätra skola", "kategori": "Grundskola", "lat": 58.23030524239865, "lon": 15.750132496280802, "type": "skola", "org": "Kommunal"}, {"namn": "Tallbodaskolan", "kategori": "Grundskola", "lat": 58.42889596286673, "lon": 15.679955388348676, "type": "skola", "org": "Kommunal"}, {"namn": "Ekdungeskolan", "kategori": "Grundskola", "lat": 58.43252562676653, "lon": 15.692785739703169, "type": "skola", "org": "Kommunal"}, {"namn": "Tanneforsskolan", "kategori": "Grundskola", "lat": 58.4034683746408, "lon": 15.646342394533017, "type": "skola", "org": "Kommunal"}, {"namn": "Tellusskolan Thea", "kategori": "Grundskola", "lat": 58.41335060736829, "lon": 15.622727410071926, "type": "skola", "org": "Fristående"}, {"namn": "Tokarpsskolan", "kategori": "Grundskola", "lat": 58.42412062010576, "lon": 15.508113690769434, "type": "skola", "org": "Kommunal"}, {"namn": "Tornhagsskolan", "kategori": "Grundskola", "lat": 58.41353873658316, "lon": 15.59157503143843, "type": "skola", "org": "Kommunal"}, {"namn": "Ulleviskolan", "kategori": "Grundskola", "lat": 58.42727186548756, "lon": 15.578902229120969, "type": "skola", "org": "Kommunal"}, {"namn": "Ulrika skola", "kategori": "Grundskola", "lat": 58.12294837710749, "lon": 15.42888172740934, "type": "skola", "org": "Kommunal"}, {"namn": "Vallastadens skola", "kategori": "Grundskola", "lat": 58.391253608670304, "lon": 15.586790600267117, "type": "skola", "org": "Kommunal"}, {"namn": "Vidingsjöskolan", "kategori": "Grundskola", "lat": 58.37989014061317, "lon": 15.647461037468169, "type": "skola", "org": "Kommunal"}, {"namn": "Vikingstads skola", "kategori": "Grundskola", "lat": 58.38127659808856, "lon": 15.436311978108463, "type": "skola", "org": "Kommunal"}, {"namn": "Valkeboskolan", "kategori": "Grundskola", "lat": 58.38342518513023, "lon": 15.445603150119858, "type": "skola", "org": "Kommunal"}, {"namn": "Vist skola", "kategori": "Grundskola", "lat": 58.330623496841646, "lon": 15.726217840119766, "type": "skola", "org": "Kommunal"}, {"namn": "Vittra skola", "kategori": "Grundskola", "lat": 58.38658780260396, "lon": 15.565173362459516, "type": "skola", "org": "Fristående"}, {"namn": "Vreta Kloster skola", "kategori": "Grundskola", "lat": 58.48383575058844, "lon": 15.519804129116055, "type": "skola", "org": "Kommunal"}, {"namn": "Ånestadsskolan", "kategori": "Grundskola", "lat": 58.39353666446451, "lon": 15.651096690541348, "type": "skola", "org": "Kommunal"}, {"namn": "Änggårdsskolan", "kategori": "Grundskola", "lat": 58.37974896997898, "lon": 15.571151444656126, "type": "skola", "org": "Kommunal"}, {"namn": "Berzeliusskolans grundskola", "kategori": "Grundskola", "lat": 58.41632682615052, "lon": 15.61080916411086, "type": "skola", "org": "Kommunal"}, {"namn": "Folkungaskolans grundskola", "kategori": "Grundskola", "lat": 58.41030217723716, "lon": 15.605952732013275, "type": "skola", "org": "Kommunal"}, {"namn": "Aspen", "kategori": "Trygghetsboende", "lat": 58.41198291313924, "lon": 15.614822769596092, "type": "vard", "org": ""}, {"namn": "Bestorp", "kategori": "Trygghetsboende", "lat": 58.23405925615779, "lon": 15.730409398425683, "type": "vard", "org": ""}, {"namn": "Blandaren", "kategori": "Trygghetsboende", "lat": 58.41485320458611, "lon": 15.625334048093656, "type": "vard", "org": ""}, {"namn": "Härnebacken", "kategori": "Trygghetsboende", "lat": 58.50011327556882, "lon": 15.501644067747067, "type": "vard", "org": ""}, {"namn": "Johannelund", "kategori": "Trygghetsboende", "lat": 58.39555176493126, "lon": 15.663090035425771, "type": "vard", "org": ""}, {"namn": "Kärna", "kategori": "Trygghetsboende", "lat": 58.41996902562838, "lon": 15.508607083088348, "type": "vard", "org": ""}, {"namn": "Linghem", "kategori": "Trygghetsboende", "lat": 58.42746560562766, "lon": 15.7888123090748, "type": "vard", "org": ""}, {"namn": "Möjetorp", "kategori": "Trygghetsboende", "lat": 58.37289917849576, "lon": 15.702446127266729, "type": "vard", "org": ""}, {"namn": "Eklunden", "kategori": "Trygghetsboende", "lat": 58.28699743482325, "lon": 15.452345251374728, "type": "vard", "org": ""}, {"namn": "Ramstorp", "kategori": "Trygghetsboende", "lat": 58.397238465030966, "lon": 15.634765908278244, "type": "vard", "org": ""}, {"namn": "Ryd", "kategori": "Trygghetsboende", "lat": 58.40918963359912, "lon": 15.56452984075998, "type": "vard", "org": ""}, {"namn": "Räknestickan", "kategori": "Trygghetsboende", "lat": 58.378175210498696, "lon": 15.667584957719544, "type": "vard", "org": ""}, {"namn": "Skäggetorp", "kategori": "Trygghetsboende", "lat": 58.42772268795154, "lon": 15.582458504443151, "type": "vard", "org": ""}, {"namn": "Solrosen", "kategori": "Trygghetsboende", "lat": 58.40531352058285, "lon": 15.601477154251851, "type": "vard", "org": ""}, {"namn": "Stolplyckan", "kategori": "Trygghetsboende", "lat": 58.40286141513376, "lon": 15.615098792875116, "type": "vard", "org": ""}, {"namn": "Sturefors", "kategori": "Trygghetsboende", "lat": 58.33627104223156, "lon": 15.721704627265446, "type": "vard", "org": ""}, {"namn": "Tannefors", "kategori": "Trygghetsboende", "lat": 58.40595294977633, "lon": 15.643230499910397, "type": "vard", "org": ""}, {"namn": "Torparegatan", "kategori": "Trygghetsboende", "lat": 58.37939945008973, "lon": 15.57219956926694, "type": "vard", "org": ""}, {"namn": "Trägårn", "kategori": "Trygghetsboende", "lat": 58.40706515154224, "lon": 15.618673555885108, "type": "vard", "org": ""}, {"namn": "Tröskaregatan", "kategori": "Trygghetsboende", "lat": 58.38849115058041, "lon": 15.56620934075928, "type": "vard", "org": ""}, {"namn": "Ullstämma", "kategori": "Trygghetsboende", "lat": 58.370747994343255, "lon": 15.672341248082477, "type": "vard", "org": ""}, {"namn": "Ulrika", "kategori": "Trygghetsboende", "lat": 58.125110385021664, "lon": 15.434652774258575, "type": "vard", "org": ""}, {"namn": "Vikingstad", "kategori": "Trygghetsboende", "lat": 58.38812847417397, "lon": 15.429815779382714, "type": "vard", "org": ""}, {"namn": "Vretaliden", "kategori": "Trygghetsboende", "lat": 58.50838681442518, "lon": 15.507846240763572, "type": "vard", "org": ""}, {"namn": "Östgötagatan", "kategori": "Trygghetsboende", "lat": 58.41824587418765, "lon": 15.615168569596316, "type": "vard", "org": ""}, {"namn": "Översten", "kategori": "Trygghetsboende", "lat": 58.4052842160156, "lon": 15.608846184940024, "type": "vard", "org": ""}, {"namn": "Bantorget", "kategori": "Vårdboende", "lat": 58.41741919316804, "lon": 15.621584269596324, "type": "vard", "org": ""}, {"namn": "Bastuplan", "kategori": "Vårdboende", "lat": 58.4090913741834, "lon": 15.623697467743751, "type": "vard", "org": ""}, {"namn": "Berga", "kategori": "Vårdboende", "lat": 58.3912999741753, "lon": 15.63567752726745, "type": "vard", "org": ""}, {"namn": "Brushanen", "kategori": "Vårdboende", "lat": 58.41585179341729, "lon": 15.622414169596253, "type": "vard", "org": ""}, {"namn": "Duvan", "kategori": "Vårdboende", "lat": 58.41002846130275, "lon": 15.629107899820792, "type": "vard", "org": ""}, {"namn": "Ekbacken", "kategori": "Vårdboende", "lat": 58.38288872519809, "lon": 15.684114798431091, "type": "vard", "org": ""}, {"namn": "Ekero", "kategori": "Vårdboende", "lat": 58.287497255360975, "lon": 15.452571491975169, "type": "vard", "org": ""}, {"namn": "Ekhult", "kategori": "Vårdboende", "lat": 58.52873668274788, "lon": 15.459727656108504, "type": "vard", "org": ""}, {"namn": "Ekollongatan", "kategori": "Vårdboende", "lat": 58.38926643863979, "lon": 15.675846161448025, "type": "vard", "org": ""}, {"namn": "Gammelgården", "kategori": "Vårdboende", "lat": 58.38604878664942, "lon": 15.428966579162134, "type": "vard", "org": ""}, {"namn": "Garnisonen", "kategori": "Vårdboende", "lat": 58.39500819534136, "lon": 15.614688344193622, "type": "vard", "org": ""}, {"namn": "Gläntan Spinnrocken", "kategori": "Vårdboende", "lat": 58.40153442911952, "lon": 15.602619471369591, "type": "vard", "org": ""}, {"namn": "Gottfridsberg", "kategori": "Vårdboende", "lat": 58.52873668274788, "lon": 15.459727656108504, "type": "vard", "org": ""}, {"namn": "Gröna Gården", "kategori": "Vårdboende", "lat": 58.40526721602093, "lon": 15.624859198431878, "type": "vard", "org": ""}, {"namn": "Gåsen", "kategori": "Vårdboende", "lat": 58.42778947419197, "lon": 15.580102998432729, "type": "vard", "org": ""}, {"namn": "Hagalund", "kategori": "Vårdboende", "lat": 58.40031548763435, "lon": 15.606963582250495, "type": "vard", "org": ""}, {"namn": "Järdalavägen", "kategori": "Vårdboende", "lat": 58.38270697417143, "lon": 15.677020040759016, "type": "vard", "org": ""}, {"namn": "Kanalgården", "kategori": "Vårdboende", "lat": 58.487022710171, "lon": 15.534783403932002, "type": "vard", "org": ""}, {"namn": "Kastanjen", "kategori": "Vårdboende", "lat": 58.39488946082403, "lon": 15.664516510598109, "type": "vard", "org": ""}, {"namn": "Kvarnbacken", "kategori": "Vårdboende", "lat": 58.402084467659904, "lon": 15.64886359883274, "type": "vard", "org": ""}, {"namn": "Kärna", "kategori": "Vårdboende", "lat": 58.42052940763608, "lon": 15.507325961587124, "type": "vard", "org": ""}, {"namn": "Kärna vårdby", "kategori": "Vårdboende", "lat": 58.41345613496221, "lon": 15.521603340760164, "type": "vard", "org": ""}, {"namn": "Landeryd", "kategori": "Vårdboende", "lat": 58.37611962463593, "lon": 15.721216164672104, "type": "vard", "org": ""}, {"namn": "Linghem", "kategori": "Vårdboende", "lat": 58.42751054462033, "lon": 15.788468986321773, "type": "vard", "org": ""}, {"namn": "Möjetorp", "kategori": "Vårdboende", "lat": 58.37290483040883, "lon": 15.7024353999776, "type": "vard", "org": ""}, {"namn": "Sandrinoparken", "kategori": "Vårdboende", "lat": 58.412401668063126, "lon": 15.606899661584873, "type": "vard", "org": ""}, {"namn": "Skräddaregården", "kategori": "Vårdboende", "lat": 58.41636505503867, "lon": 15.597343769596256, "type": "vard", "org": ""}, {"namn": "Solgläntan", "kategori": "Vårdboende", "lat": 58.38805314296516, "lon": 15.430466907692386, "type": "vard", "org": ""}, {"namn": "Solstickan", "kategori": "Vårdboende", "lat": 58.37877333214064, "lon": 15.66779916157633, "type": "vard", "org": ""}, {"namn": "Stiglötsgatan", "kategori": "Vårdboende", "lat": 58.425837226792765, "lon": 15.574609342689952, "type": "vard", "org": ""}, {"namn": "Trollflöjten", "kategori": "Vårdboende", "lat": 58.41275471363579, "lon": 15.61395266959626, "type": "vard", "org": ""}, {"namn": "Tröskaregatan", "kategori": "Vårdboende", "lat": 58.3886028123913, "lon": 15.565931279641436, "type": "vard", "org": ""}, {"namn": "Valla park", "kategori": "Vårdboende", "lat": 58.4023842156363, "lon": 15.596835561036176, "type": "vard", "org": ""}, {"namn": "Vallastaden", "kategori": "Vårdboende", "lat": 58.39086205283306, "lon": 15.587977257955767, "type": "vard", "org": ""}, {"namn": "Valthornsgatan", "kategori": "Vårdboende", "lat": 58.36654367416409, "lon": 15.679224598430515, "type": "vard", "org": ""}, {"namn": "Vasastaden", "kategori": "Vårdboende", "lat": 58.417280328094535, "lon": 15.617394630598652, "type": "vard", "org": ""}, {"namn": "Villa Ryd", "kategori": "Vårdboende", "lat": 58.41515367375044, "lon": 15.56833977253487, "type": "vard", "org": ""}, {"namn": "Vretaliden", "kategori": "Vårdboende", "lat": 58.50840362780785, "lon": 15.507835511927542, "type": "vard", "org": ""}, {"namn": "Åleryd", "kategori": "Vårdboende", "lat": 58.38382249857528, "lon": 15.664151730189264, "type": "vard", "org": ""}, {"namn": "Ånestad", "kategori": "Vårdboende", "lat": 58.38514068345026, "lon": 15.64975403274192, "type": "vard", "org": ""}, {"namn": "Elipsen", "kategori": "Seniorboende", "lat": 58.4033059, "lon": 15.6143081, "type": "vard", "org": ""}, {"namn": "Labbet", "kategori": "Seniorboende", "lat": 58.4017865, "lon": 15.606032, "type": "vard", "org": ""}, {"namn": "Vingården", "kategori": "Seniorboende", "lat": 58.395714, "lon": 15.621854, "type": "vard", "org": ""}, {"namn": "Ryd Centrum", "kategori": "Seniorboende", "lat": 58.4088745, "lon": 15.5626716, "type": "vard", "org": ""}, {"namn": "Skräddaren", "kategori": "Seniorboende", "lat": 58.416003, "lon": 15.5984655, "type": "vard", "org": ""}, {"namn": "Löjtnanten", "kategori": "Seniorboende", "lat": 58.3919183, "lon": 15.6349242, "type": "vard", "org": ""}, {"namn": "Folkets Park", "kategori": "Seniorboende", "lat": 58.4090991, "lon": 15.588562, "type": "vard", "org": ""}, {"namn": "Solvändan", "kategori": "Seniorboende", "lat": 58.3953137, "lon": 15.6398822, "type": "vard", "org": ""}, {"namn": "Skogslyckan", "kategori": "Seniorboende", "lat": 58.3955345, "lon": 15.6630861, "type": "vard", "org": ""}, {"namn": "Tinnerbäcken", "kategori": "Seniorboende", "lat": 58.4055481, "lon": 15.6267826, "type": "vard", "org": ""}, {"namn": "Ejdern", "kategori": "Seniorboende", "lat": 58.4070055, "lon": 15.6172153, "type": "vard", "org": ""}]